{"type":"Topology","objects":{"university":{"type":"GeometryCollection","bbox":[100.34623178240096,13.577191241603096,100.85604930153146,13.892160935269732],"geometries":[{"type":"Point","properties":{"NAME":"สถาบันเทคโนโลยีปทุมวัน","DCODE":"1007","TYPE":"1","address":"833 ถ.พระราม 1 แขวงวังใหม่ เขตปทุมวัน","x":664971.267,"y":1520376.816},"coordinates":[3522,5422]},{"type":"Point","properties":{"NAME":"มหาวิทยาลัยเทคโนโลยีราชมงคลตะวันออก(วิทยาเขตอุเทนถวาย)","DCODE":"1007","TYPE":"1","address":"225 ถ.พญาไท เขตปทุมวัน","x":665519.727,"y":1519718.738},"coordinates":[3621,5232]},{"type":"Point","properties":{"NAME":"จุฬาลงกรณ์มหาวิทยาลัย","DCODE":"1007","TYPE":"1","address":"254 ถ.พญาไท แขวงวังใหม่ เขตปทุมวัน","x":665544.41,"y":1519341.442},"coordinates":[3625,5124]},{"type":"Point","properties":{"NAME":"มหาวิทยาลัยราชภัฏจันทรเกษม","DCODE":"1030","TYPE":"1","address":"39/1 ถ.รัชดาภิเษก เขตจตุจักร","x":670401.834,"y":1528391.039},"coordinates":[4517,7712]},{"type":"Point","properties":{"NAME":"มหาวิทยาลัยราชภัฏธนบุรี","DCODE":"1015","TYPE":"1","address":"172 ถ.อิสรภาพ แขวงวัดกัลยา เขตธนบุรี","x":661282.696,"y":1518842.965},"coordinates":[2852,4988]},{"type":"Point","properties":{"NAME":"มหาวิทยาลัยราชภัฏบ้านสมเด็จเจ้าพระยา","DCODE":"1015","TYPE":"1","address":"1061 ซ.อิสรภาพ 15 ถ.อิสรภาพ เขตธนบุรี","x":661127.914,"y":1518639.234},"coordinates":[2824,4930]},{"type":"Point","properties":{"NAME":"มหาวิทยาลัยราชภัฏพระนคร","DCODE":"1005","TYPE":"1","address":"9 ถ.แจ้งวัฒนะ เขตบางเขน","x":671807.585,"y":1534918.509},"coordinates":[4780,9582]},{"type":"Point","properties":{"NAME":"มหาวิทยาลัยราชภัฏสวนดุสิต","DCODE":"1002","TYPE":"1","address":"295 ถ.ราชสีมา เขตดุสิต","x":663291.761,"y":1523421.291},"coordinates":[3221,6299]},{"type":"Point","properties":{"NAME":"มหาวิทยาลัยเทคโนโลยีราชมงคลพระนคร(วิทยาเขตเทเวศร์)","DCODE":"1002","TYPE":"1","address":"วรสวัสดิ์สำเพ็ง จักรวรรดิ กรุงเทพฯ","x":662617.599,"y":1522872.805},"coordinates":[3098,6142]},{"type":"Point","properties":{"NAME":"มหาวิทยาลัยราชภัฏสวนสุนันทา","DCODE":"1002","TYPE":"1","address":"1 ถ.อู่ทองนอก แขวงวชิระ เขตดุสิต","x":663204.845,"y":1523602.399},"coordinates":[3206,6351]},{"type":"Point","properties":{"NAME":"มหาวิทยาลัยเทคโนโลยีราชมงคลพระนคร(วิทยาเขตพณิชยการพระนคร)","DCODE":"1002","TYPE":"1","address":"1381 ถ.พิบูลสงคราม แขวงบางซื่อ เขตบางซื่อ","x":663724.312,"y":1521919.267},"coordinates":[3298,5867]},{"type":"Point","properties":{"NAME":"มหาวิทยาลัยเทคโนโลยีราชมงคลพระนคร(วิทยาเขตชุมพรเขตอุดมศักดิ์)","DCODE":"1002","TYPE":"1","address":"517 ถ.นครสวรรค์ แขวงสวนจิตรลดา เขตดุสิต","x":663695.737,"y":1521853.386},"coordinates":[3293,5848]},{"type":"Point","properties":{"NAME":"มหาวิทยาลัยเทคโนโลยีราชมงคลพระนคร(วิทยาเขตโชติเวช)","DCODE":"1002","TYPE":"1","address":"168 ถ.ศรีอยุธยา แขวงวชิรพยาบาล เขตดุสิต","x":662462.692,"y":1523103.378},"coordinates":[3071,6209]},{"type":"Point","properties":{"NAME":"มหาวิทยาลัยเทคโนโลยีราชมงคลกรุงเทพ(วิทยาเขตเทคนิคกรุงเทพ)","DCODE":"1028","TYPE":"1","address":"2 ถ.นางลิ้นจี่ แขวงทุ่งมหาเมฆ เขตสาทร","x":666364.907,"y":1516654.769},"coordinates":[3771,4351]},{"type":"Point","properties":{"NAME":"มหาวิทยาลัยเทคโนโลยีราชมงคลกรุงเทพ(วิทยาเขตบพิตรพิมุข มหาเมฆ)","DCODE":"1028","TYPE":"1","address":"878  อาคารสงเคราะห์  ถ.นางลิ้นจี่  แขวงทุ่งมหาเมฆ เขตสาทร","x":666272.279,"y":1516995.033},"coordinates":[3755,4449]},{"type":"Point","properties":{"NAME":"มหาวิทยาลัยเทคโนโลยีราชมงคลกรุงเทพ(วิทยาเขตพระนครใต้)","DCODE":"1028","TYPE":"1","address":"1635 ถ.เจริญกรุง แขวงยานนาวา เขตสาทร","x":663794.169,"y":1516781.589},"coordinates":[3305,4392]},{"type":"Point","properties":{"NAME":"มหาวิทยาลัยเทคโนโลยีราชมงคลรัตนโกสินทร์(วิทยาเขตเพาะช่าง)","DCODE":"1001","TYPE":"1","address":"86 ถ.ตรีเพชร วังบูรพา เขตพระนคร","x":662043.576,"y":1519976.512},"coordinates":[2991,5312]},{"type":"Point","properties":{"NAME":"มหาวิทยาลัยเทคโนโลยีราชมงคลรัตนโกสินทร์(วิทยาเขตบพิตรพิมุข จักรวรรดิ)","DCODE":"1013","TYPE":"1","address":"264  ถ.จักรวรรดิ เขตสัมพันธวงศ์","x":662417.873,"y":1519706.558},"coordinates":[3059,5234]},{"type":"Point","properties":{"NAME":"มหาวิทยาลัยเทคโนโลยีราชมงคลพระนคร(วิทยาเขตพระนครเหนือ)","DCODE":"1029","TYPE":"1","address":"1381 ถ.พิบูลสงคราม แขวงบางซื่อ เขตบางซื่อ","x":663541.032,"y":1528169.885},"coordinates":[3272,7661]},{"type":"Point","properties":{"NAME":"มหาวิทยาลัยเทคโนโลยีราชมงคลตะวันออก(วิทยาเขตจักรพงษ์ภูวนารถ)","DCODE":"1026","TYPE":"1","address":"122/41 ถ.วิภาวดีรังสิต แขวงดินแดง เขตดินแดง","x":668309.807,"y":1523762.449},"coordinates":[4132,6387]},{"type":"Point","properties":{"NAME":"มหาวิทยาลัยรามคำแหง 1 (หัวหมาก)","DCODE":"1006","TYPE":"1","address":"ถนนรามคำแหง แขวงหัวหมาก เขตบางกะปิ","x":675008.807,"y":1521419.853},"coordinates":[5344,5702]},{"type":"Point","properties":{"NAME":"มหาวิทยาลัยรามคำแหง 2 (วิทยาเขตบางนา)","DCODE":"1032","TYPE":"1","address":"ถนนรามคำแหง 2 วิทยาเขตบางนา แขวงประเวศ เขตประเวศ","x":682130.883,"y":1511581.411},"coordinates":[6623,2865]},{"type":"Point","properties":{"NAME":"มหาวิทยาลัยเกษตรศาสตร์ (บางเขน)","DCODE":"1030","TYPE":"1","address":"50 ถ.พหลโยธิน แขวงลาดยาว เขตจตุจักร","x":669454.249,"y":1531243.026},"coordinates":[4348,8532]},{"type":"Point","properties":{"NAME":"มหาวิทยาลัยธรรมศาสตร์ (ท่าพระจันทร์)","DCODE":"1001","TYPE":"1","address":"2 ถ.พระจันทร์ เขตพระนคร","x":661180.657,"y":1521312.586},"coordinates":[2836,5697]},{"type":"Point","properties":{"NAME":"มหาวิทยาลัยศิลปากร (วังท่าพระ)","DCODE":"1001","TYPE":"1","address":"22 วังท่าพระ ถนนหน้าพระลาน เขตตลิ่งชัน","x":661118.154,"y":1520946.723},"coordinates":[2824,5592]},{"type":"Point","properties":{"NAME":"มหาวิทยาลัยศรีนครินทรวิโรฒ (ประสานมิตร)","DCODE":"1039","TYPE":"1","address":"114 ซ.สุขุมวิท 23 เขตวัฒนา","x":669307.111,"y":1520020.516},"coordinates":[4308,5312]},{"type":"Point","properties":{"NAME":"มหาวิทยาลัยเทคโนโลยีพระจอมเกล้าธนบุรี (วิทยาเขตทุ่งครุ)","DCODE":"1049","TYPE":"2","address":"126 ถ.ประชาอุทิศ แขวงบางมด เขตทุ่งครุ","x":661552.943,"y":1509388.174},"coordinates":[2890,2275]},{"type":"Point","properties":{"NAME":"สถาบันเทคโนโลยีพระจอมเกล้าพระนครเหนือ","DCODE":"1029","TYPE":"1","address":"1518 ถ.พิบูลสงคราม เขตบางซื่อ","x":663702.345,"y":1528267.319},"coordinates":[3301,7688]},{"type":"Point","properties":{"NAME":"สถาบันเทคโนโลยีพระจอมเกล้าเจ้าคุณทหารลาดกระบัง","DCODE":"1011","TYPE":"1","address":"ถนนฉลองกรุง เขตลาดกระบัง","x":692407.075,"y":1518523.895},"coordinates":[8495,4836]},{"type":"Point","properties":{"NAME":"สถาบันบัณฑิตพัฒนบริหารศาสตร์","DCODE":"1006","TYPE":"1","address":"118 หมู่ 3 ถ.เสรีไทย แขวงคลองจั่น เขตบางกะปิ","x":678640.752,"y":1522766.706},"coordinates":[6004,6082]},{"type":"Point","properties":{"NAME":"มหาวิทยาลัยอัสสัมชัญ","DCODE":"1006","TYPE":"3","address":"682 หมู่ 11 ซอยหมู่บ้านเสรี  ถ.รามคำแหง 24 หัวหมาก เขตบางกะปิ","x":675998.927,"y":1521140.799},"coordinates":[5523,5620]},{"type":"Point","properties":{"NAME":"มหาวิทยาลัยกรุงเทพ (วิทยาเขตกล้วยน้ำไท)","DCODE":"1033","TYPE":"3","address":"ถนนพระราม 4 คลองเตย","x":671065.048,"y":1516385.35},"coordinates":[4623,4265]},{"type":"Point","properties":{"NAME":"มหาวิทยาลัยธุรกิจบัณฑิตย์","DCODE":"1041","TYPE":"3","address":"110/1-4 ถ.ประชาชื่น หลักสี่","x":667520.145,"y":1533961.157},"coordinates":[4001,9315]},{"type":"Point","properties":{"NAME":"มหาวิทยาลัยเกษมบัณฑิต (วิทยาเขตพัฒนาการ)","DCODE":"1034","TYPE":"3","address":"1761 ถ.พัฒนาการ แขวงสวนหลวง เขตสวนหลวง","x":675919.326,"y":1519508.978},"coordinates":[5507,5152]},{"type":"Point","properties":{"NAME":"มหาวิทยาลัยเกษมบัณฑิต (วิทยาเขตร่มเกล้า)","DCODE":"1010","TYPE":"3","address":"77 หมู่ 7 ถ.ร่มเกล้า เขตมีนบุรี","x":688014.678,"y":1527054.498},"coordinates":[7710,7293]},{"type":"Point","properties":{"NAME":"มหาวิทยาลัยเกริก","DCODE":"1005","TYPE":"3","address":"43/1111 ถ.รามอินทรา แขวงอนุสาวรีย์ เขตบางเขน","x":672883.734,"y":1534286.412},"coordinates":[4974,9398]},{"type":"Point","properties":{"NAME":"มหาวิทยาลัยเทคโนโลยีมหานคร","DCODE":"1003","TYPE":"3","address":"140 ถ.เชื่อมสัมพันธ์ เขตหนองจอก","x":700602.455,"y":1531186.915},"coordinates":[9999,8452]},{"type":"Point","properties":{"NAME":"มหาวิทยาลัยรัตนบัณฑิต","DCODE":"1006","TYPE":"3","address":"306 ซ.ลาดพร้าว 107 คลองจั่น เขตบางกะปิ","x":677130.884,"y":1523922.29},"coordinates":[5732,6416]},{"type":"Point","properties":{"NAME":"มหาวิทยาลัยเซนต์จอห์น","DCODE":"1030","TYPE":"3","address":"1110/5 ถ.วิภาวดีรังสิต แขวงจอมพล เขตจตุจักร","x":668759.448,"y":1527357.671},"coordinates":[4218,7418]},{"type":"Point","properties":{"NAME":"มหาวิทยาลัยสยาม","DCODE":"1022","TYPE":"3","address":"235 ถ.เพชรเกษม เขตภาษีเจริญ","x":657139.48,"y":1517154.093},"coordinates":[2099,4511]},{"type":"Point","properties":{"NAME":"มหาวิทยาลัยเอเชียอาคเนย์","DCODE":"1023","TYPE":"3","address":"19/1  ถ.เพชรเกษม หนองค้างพลู เขตหนองแขม","x":646586.655,"y":1515749.454},"coordinates":[183,4126]},{"type":"Point","properties":{"NAME":"มหาวิทยาลัยศรีปทุม","DCODE":"1030","TYPE":"3","address":"61 ถ.พหลโยธิน เขตจตุจักร","x":671316.26,"y":1532286.474},"coordinates":[4687,8828]},{"type":"Point","properties":{"NAME":"มหาวิทยาลัยหอการค้าไทย","DCODE":"1026","TYPE":"3","address":"126/1 ถ.วิภาวดีรังสิต  เขตดินแดง","x":668642.801,"y":1523863.619},"coordinates":[4192,6416]},{"type":"Point","properties":{"NAME":"มหาวิทยาลัยเทคโนโลยีพระจอมเกล้าธนบุรี (วิทยาเขตบางขุนเทียน)","DCODE":"1021","TYPE":"2","address":"49 ซอยเทียนทะเล 25 ถ.บางขุนเทียน-ชายทะเล แขวงท่าข้าม เขตบางขุนเทียน","x":655823.143,"y":1501426.379},"coordinates":[1843,0]},{"type":"Point","properties":{"NAME":"มหาวิทยาลัยธนบุรี","DCODE":"1023","TYPE":"3","address":"248 เพชรเกษม 110 แขวงหนองค้างพลู เขตหนองแขม","x":645594.592,"y":1516714.983},"coordinates":[5,4404]},{"type":"Point","properties":{"NAME":"มหาวิทยาลัยกรุงเทพธนบุรี","DCODE":"1048","TYPE":"3","address":"16/10 ถ.เลียบคลองทวีวัฒนา แขวงทวีวัฒนา เขตทวีวัฒนา","x":645537.761,"y":1522381.145},"coordinates":[0,6030]},{"type":"Point","properties":{"NAME":"วิทยาลัยเซ็นหลุยส์","DCODE":"1028","TYPE":"3","address":"19 ถ.สาทรใต้ แขวงยานนาวา เขตสาทร","x":664825.382,"y":1517119.643},"coordinates":[3492,4488]},{"type":"Point","properties":{"NAME":"วิทยาลัยทองสุข","DCODE":"1048","TYPE":"3","address":"99/79 ถ.บรมราชชนนี ใกล้ต่างระดับพุทธมณฑลสาย 2 แขวงศาลาธรรมสพน์ เขตทวีวัฒนา","x":651549.071,"y":1524194.623},"coordinates":[1092,6541]},{"type":"Point","properties":{"NAME":"วิทยาลัยเทคโนโลยีสยาม","DCODE":"1016","TYPE":"3","address":"46/ ถ.จรัญสนิทวงศ์ 10 แขวงท่าพระ เขตบางกอกใหญ่","x":659439.736,"y":1518922.544},"coordinates":[2518,5014]},{"type":"Point","properties":{"NAME":"วิทยาลัยเซาธ์อีสท์บางกอก","DCODE":"1047","TYPE":"3","address":"290 ถ.สรรพาวุธ แขวงบางนา เขตบางนา","x":673664.869,"y":1512145.558},"coordinates":[5089,3044]},{"type":"Point","properties":{"NAME":"วิทยาลัยดุสิตธานี","DCODE":"1032","TYPE":"3","address":"1 ซอยแก่นทอง (ข้างซีคอนสแควร์) แขวงหนองบอน เขตประเวศ","x":678653.929,"y":1514578.683},"coordinates":[5997,3732]},{"type":"Point","properties":{"NAME":"วิทยาลัยนอร์ทกรุงเทพ","DCODE":"1042","TYPE":"3","address":"6/999 ถ.พหลโยธิน 52 ถ.พหลโยธิน แขวงคลองถนน เขตสายไหม","x":675117.619,"y":1536394.646},"coordinates":[5382,9999]},{"type":"Point","properties":{"NAME":"วิทยาลัยรัชต์ภาคย์","DCODE":"1045","TYPE":"3","address":"68 ซ.นวศรี 10 ถ.รามคำแหง 21 แขวงวังทองหลาง เขตวังทองหลาง","x":673727.67,"y":1521648.944},"coordinates":[5112,5771]},{"type":"Point","properties":{"NAME":"วิทยาลัยมิชชั่น (วิทยาเขตกรุงเทพ)","DCODE":"1037","TYPE":"3","address":"430 ถ.พิษณุโลก แขวงสี่แยกมหานาค เขตดุสิต","x":664546.77,"y":1521097.173},"coordinates":[3446,5629]},{"type":"Point","properties":{"NAME":"วิทยาลัยกรุงเทพสุวรรณภูมิ","DCODE":"1011","TYPE":"3","address":"489 ถ.ประชาพัฒนา แขวงทับยาว แขวงลาดกระบัง","x":695233.576,"y":1517429.697},"coordinates":[9006,4516]},{"type":"Point","properties":{"NAME":"สถาบันเทคโนโลยีไทย-ญี่ปุ่น","DCODE":"1034","TYPE":"3","address":"ถนนพัฒนาการ แขวงสวนหลวง เขตสวนหลวง","x":676089.539,"y":1519363.661},"coordinates":[5538,5110]},{"type":"Point","properties":{"NAME":"สถาบันอาศรมศิลป์","DCODE":"1021","TYPE":"3","address":"399 ซ.อนามัยงามเจริญ 25 แขวงท่าข้าม เขตบางขุนเทียน","x":658457.104,"y":1510145.748},"coordinates":[2330,2498]},{"type":"Point","properties":{"NAME":"สถาบันบัณฑิตศึกษาจุฬาภรณ์","DCODE":"1041","TYPE":"1","address":"54 กำแพงเพชร 6 ท่าลาดบางเขน เขตหลักสี่","x":670632.25,"y":1535263.418},"coordinates":[4567,9683]},{"type":"Point","properties":{"NAME":"มหาวิทยาลัยหัวเฉียวเฉลิมพระเกียรติ (วิทยาเขตยศเส)","DCODE":"1008","TYPE":"3","address":"54 ถ.กำแพงเพชร 6 ท่าลาดบางเขน  เขตหลักสี่","x":663880.901,"y":1520638.905},"coordinates":[3325,5499]}]}},"arcs":[],"transform":{"scale":[0.000050986850598109135,0.00003150011937860153],"translate":[100.34623178240096,13.577191241603096]}}
